[{"codinome":"Alfa","quantidade":11,"latitude":-30.033056,"longitude":-51.23},{"codinome":"Bravo","quantidade":21,"latitude":46.825905,"longitude":-100.778275},{"codinome":"Charlie","quantidade":31,"latitude":52.5186,"longitude":13.4081},{"codinome":"Delta","quantidade":41,"latitude":47.9167,"longitude":106.917},{"codinome":"Echo","quantidade":51,"latitude":-4.322447,"longitude":15.307045},{"codinome":"Foxtrot","quantidade":61,"latitude":-15.7801,"longitude":-47.929},{"codinome":"Golf","quantidade":71,"latitude":-9.43196,"longitude":159.948},{"codinome":"14","quantidade":14,"latitude":14.0,"longitude":14.0},{"codinome":"134","quantidade":134,"latitude":134.0,"longitude":134.0},{"codinome":"123","quantidade":123,"latitude":134.0,"longitude":341.0}]